#version,serial,flight,call,time,state,state_name,acceleration,pressure,altitude,height,speed,temperature,drogue_voltage,main_voltage,battery_voltage,accel_x,accel_y,accel_z,gyro_roll,gyro_pitch,gyro_yaw,mag_x,mag_y,mag_z,tilt,pyro,igniter_a,igniter_b,igniter_c,igniter_d,connected,locked,nsat,latitude,longitude,altitude,year,month,day,hour,minute,second,pad_dist,pad_range,pad_az,pad_el,pdop,hdop,vdop,sat01,sat02,sat03,sat04,sat05,sat06,sat07,sat08,sat09,sat10,sat11,sat12,sat13,sat14,sat15,sat16,sat17,sat18,sat19,sat20,sat21,sat22,sat23,sat24,sat25,sat26,sat27,sat28,sat29,sat30,sat31,sat32
6, 11047, 5,KE9CTZ,    -0.30, 3,   boost,   -1.01, 100225.00,   91.97,   -0.25,    0.00, 18.1, 4.19, 4.17, 4.03,   9.76,   0.57,   0.08,   0.21,   0.32,   0.23,  -0.34,  -0.01,   0.75,   2.97, 4.18, 0.00, 0.00, 0.00, 4.20, 1, 1,  9,  40.3885336, -87.5141538,   219.0, 2025, 10, 25, 19, 28, 31,        0,        0,   0,   0,   1.4,   0.8,   1.1,  0,  0, 25, 25,  0,  0,  0,  0, 38,  0,  0,  0,  0,  0,  0, 29,  0,  0,  0,  0,  0,  0,  0,  0,  0, 30, 25, 39, 27,  0, 35, 22
6, 11047, 5,KE9CTZ,    -0.29, 3,   boost,   -0.00, 100225.00,   91.97,   -0.25,    0.00, 18.1, 4.19, 4.17, 4.03,   9.79,   0.45,  -0.19,  -2.11,   0.08,   0.17,  -0.34,  -0.01,   0.75,   2.97, 4.18, 0.00, 0.00, 0.00, 4.20, 1, 1,  9,  40.3885336, -87.5141538,   219.0, 2025, 10, 25, 19, 28, 31,        0,        0,   0,   0,   1.4,   0.8,   1.1,  0,  0, 25, 25,  0,  0,  0,  0, 38,  0,  0,  0,  0,  0,  0, 29,  0,  0,  0,  0,  0,  0,  0,  0,  0, 30, 25, 39, 27,  0, 35, 22
6, 11047, 5,KE9CTZ,    -0.28, 3,   boost,   -0.50, 100225.00,   91.97,   -0.25,    0.00, 18.1, 4.19, 4.17, 4.03,   9.79,   0.27,  -0.33,  -1.31,   0.08,   0.04,  -0.34,  -0.01,   0.75,   2.97, 4.18, 0.00, 0.00, 0.00, 4.20, 1, 1,  9,  40.3885336, -87.5141538,   219.0, 2025, 10, 25, 19, 28, 31,        0,        0,   0,   0,   1.4,   0.8,   1.1,  0,  0, 25, 25,  0,  0,  0,  0, 38,  0,  0,  0,  0,  0,  0, 29,  0,  0,  0,  0,  0,  0,  0,  0,  0, 30, 25, 39, 27,  0, 35, 22
6, 11047, 5,KE9CTZ,    -0.27, 3,   boost,   -0.00, 100227.00,   91.80,   -0.42,    0.00, 18.1, 4.19, 4.17, 4.03,   9.89,   0.32,  -0.26,   0.64,   0.20,  -0.14,  -0.34,  -0.01,   0.75,   2.97, 4.18, 0.00, 0.00, 0.00, 4.20, 1, 1,  9,  40.3885336, -87.5141538,   219.0, 2025, 10, 25, 19, 28, 31,        0,        0,   0,   0,   1.4,   0.8,   1.1,  0,  0, 25, 25,  0,  0,  0,  0, 38,  0,  0,  0,  0,  0,  0, 29,  0,  0,  0,  0,  0,  0,  0,  0,  0, 30, 25, 39, 27,  0, 35, 22
6, 11047, 5,KE9CTZ,    -0.26, 3,   boost,   -2.51, 100227.00,   91.80,   -0.42,    0.00, 18.1, 4.19, 4.17, 4.03,   9.85,   0.45,  -0.19,   1.37,   0.56,  -0.20,  -0.34,  -0.02,   0.75,   2.97, 4.18, 0.00, 0.00, 0.00, 4.20, 1, 1,  9,  40.3885336, -87.5141538,   219.0, 2025, 10, 25, 19, 28, 31,        0,        0,   0,   0,   1.4,   0.8,   1.1,  0,  0, 25, 25,  0,  0,  0,  0, 38,  0,  0,  0,  0,  0,  0, 29,  0,  0,  0,  0,  0,  0,  0,  0,  0, 30, 25, 39, 27,  0, 35, 22
6, 11047, 5,KE9CTZ,    -0.25, 3,   boost,   -0.00, 100229.00,   91.64,   -0.59,    0.00, 18.1, 4.19, 4.17, 4.03,   9.81,   0.57,  -0.11,   2.04,   0.14,   0.04,  -0.34,  -0.01,   0.75,   2.97, 4.18, 0.00, 0.00, 0.00, 4.20, 1, 1,  9,  40.3885336, -87.5141538,   219.0, 2025, 10, 25, 19, 28, 31,        0,        0,   0,   0,   1.4,   0.8,   1.1,  0,  0, 25, 25,  0,  0,  0,  0, 38,  0,  0,  0,  0,  0,  0, 29,  0,  0,  0,  0,  0,  0,  0,  0,  0, 30, 25, 39, 27,  0, 35, 22
6, 11047, 5,KE9CTZ,    -0.24, 3,   boost,   -0.00, 100229.00,   91.64,   -0.59,    0.00, 18.1, 4.19, 4.17, 4.03,   9.79,   0.71,   0.05,   2.65,   0.20,  -0.14,  -0.34,  -0.01,   0.75,   2.97, 4.18, 0.00, 0.00, 0.00, 4.20, 1, 1,  9,  40.3885336, -87.5141538,   219.0, 2025, 10, 25, 19, 28, 31,        0,        0,   0,   0,   1.4,   0.8,   1.1,  0,  0, 25, 25,  0,  0,  0,  0, 38,  0,  0,  0,  0,  0,  0, 29,  0,  0,  0,  0,  0,  0,  0,  0,  0, 30, 25, 39, 27,  0, 35, 22
6, 11047, 5,KE9CTZ,    -0.23, 3,   boost,   -2.01, 100227.00,   91.80,   -0.42,    0.00, 18.1, 4.19, 4.17, 4.03,   9.69,   0.79,   0.11,   1.62,   0.44,  -0.26,  -0.34,  -0.01,   0.75,   2.97, 4.18, 0.00, 0.00, 0.00, 4.20, 1, 1,  9,  40.3885336, -87.5141538,   219.0, 2025, 10, 25, 19, 28, 31,        0,        0,   0,   0,   1.4,   0.8,   1.1,  0,  0, 25, 25,  0,  0,  0,  0, 38,  0,  0,  0,  0,  0,  0, 29,  0,  0,  0,  0,  0,  0,  0,  0,  0, 30, 25, 39, 27,  0, 35, 22
6, 11047, 5,KE9CTZ,    -0.22, 3,   boost,    1.51, 100227.00,   91.80,   -0.42,    0.00, 18.1, 4.19, 4.17, 4.03,   9.81,   0.65,   0.21,   0.15,   0.08,  -0.20,  -0.34,  -0.01,   0.75,   2.97, 4.18, 0.00, 0.00, 0.00, 4.20, 1, 1,  9,  40.3885336, -87.5141538,   219.0, 2025, 10, 25, 19, 28, 31,        0,        0,   0,   0,   1.4,   0.8,   1.1,  0,  0, 25, 25,  0,  0,  0,  0, 38,  0,  0,  0,  0,  0,  0, 29,  0,  0,  0,  0,  0,  0,  0,  0,  0, 30, 25, 39, 27,  0, 35, 22
6, 11047, 5,KE9CTZ,    -0.21, 3,   boost,   -0.50, 100227.00,   91.80,   -0.42,    0.00, 18.1, 4.19, 4.17, 4.03,   9.87,   0.57,  -0.09,  -0.64,   0.26,  -0.08,  -0.34,  -0.01,   0.75,   2.97, 4.18, 0.00, 0.00, 0.00, 4.20, 1, 1,  9,  40.3885336, -87.5141538,   219.0, 2025, 10, 25, 19, 28, 31,        0,        0,   0,   0,   1.4,   0.8,   1.1,  0,  0, 25, 25,  0,  0,  0,  0, 38,  0,  0,  0,  0,  0,  0, 29,  0,  0,  0,  0,  0,  0,  0,  0,  0, 30, 25, 39, 27,  0, 35, 22
6, 11047, 5,KE9CTZ,    -0.20, 3,   boost,   -0.50, 100227.00,   91.80,   -0.42,    0.00, 18.1, 4.19, 4.17, 4.03,   9.80,   0.55,  -0.20,  -0.83,  -0.23,  -0.32,  -0.34,  -0.01,   0.75,   2.97, 4.18, 0.00, 0.00, 0.00, 4.20, 1, 1,  9,  40.3885336, -87.5141538,   219.0, 2025, 10, 25, 19, 28, 31,        0,        0,   0,   0,   1.4,   0.8,   1.1,  0,  0, 25, 25,  0,  0,  0,  0, 38,  0,  0,  0,  0,  0,  0, 29,  0,  0,  0,  0,  0,  0,  0,  0,  0, 30, 25, 39, 27,  0, 35, 22
6, 11047, 5,KE9CTZ,    -0.19, 3,   boost,   -0.00, 100233.00,   91.30,   -0.92,    0.00, 18.1, 4.19, 4.17, 4.03,   9.82,   0.34,  -0.27,  -1.44,   0.01,  -0.02,  -0.34,  -0.02,   0.75,   2.97, 4.18, 0.00, 0.00, 0.00, 4.20, 1, 1,  9,  40.3885336, -87.5141538,   219.0, 2025, 10, 25, 19, 28, 31,        0,        0,   0,   0,   1.4,   0.8,   1.1,  0,  0, 25, 25,  0,  0,  0,  0, 38,  0,  0,  0,  0,  0,  0, 29,  0,  0,  0,  0,  0,  0,  0,  0,  0, 30, 25, 39, 27,  0, 35, 22
6, 11047, 5,KE9CTZ,    -0.18, 3,   boost,    2.01, 100233.00,   91.30,   -0.92,    0.00, 18.1, 4.19, 4.17, 4.03,   9.83,   0.37,  -0.14,  -0.21,   0.08,   0.10,  -0.34,  -0.01,   0.75,   2.97, 4.18, 0.00, 0.00, 0.00, 4.20, 1, 1,  9,  40.3885336, -87.5141538,   219.0, 2025, 10, 25, 19, 28, 31,        0,        0,   0,   0,   1.4,   0.8,   1.1,  0,  0, 25, 25,  0,  0,  0,  0, 38,  0,  0,  0,  0,  0,  0, 29,  0,  0,  0,  0,  0,  0,  0,  0,  0, 30, 25, 39, 27,  0, 35, 22
6, 11047, 5,KE9CTZ,    -0.17, 3,   boost,   -0.00, 100233.00,   91.30,   -0.92,    0.00, 18.1, 4.19, 4.17, 4.03,   9.78,   0.40,  -0.09,   0.15,  -0.11,  -0.32,  -0.34,  -0.01,   0.75,   2.97, 4.18, 0.00, 0.00, 0.00, 4.20, 1, 1,  9,  40.3885336, -87.5141538,   219.0, 2025, 10, 25, 19, 28, 31,        0,        0,   0,   0,   1.4,   0.8,   1.1,  0,  0, 25, 25,  0,  0,  0,  0, 38,  0,  0,  0,  0,  0,  0, 29,  0,  0,  0,  0,  0,  0,  0,  0,  0, 30, 25, 39, 27,  0, 35, 22
6, 11047, 5,KE9CTZ,    -0.16, 3,   boost,    0.50, 100233.00,   91.30,   -0.92,    0.00, 18.1, 4.19, 4.17, 4.03,   9.80,   0.37,  -0.21,   0.64,   0.08,  -0.38,  -0.34,  -0.01,   0.75,   2.97, 4.18, 0.00, 0.00, 0.00, 4.20, 1, 1,  9,  40.3885336, -87.5141538,   219.0, 2025, 10, 25, 19, 28, 31,        0,        0,   0,   0,   1.4,   0.8,   1.1,  0,  0, 25, 25,  0,  0,  0,  0, 38,  0,  0,  0,  0,  0,  0, 29,  0,  0,  0,  0,  0,  0,  0,  0,  0, 30, 25, 39, 27,  0, 35, 22
6, 11047, 5,KE9CTZ,    -0.15, 3,   boost,   -0.00, 100228.00,   91.72,   -0.50,    0.00, 18.1, 4.19, 4.17, 4.03,   9.91,   0.60,  -0.16,   2.10,  -0.05,  -0.38,  -0.34,  -0.01,   0.75,   2.97, 4.18, 0.00, 0.00, 0.00, 4.20, 1, 1,  9,  40.3885336, -87.5141538,   219.0, 2025, 10, 25, 19, 28, 31,        0,        0,   0,   0,   1.4,   0.8,   1.1,  0,  0, 25, 25,  0,  0,  0,  0, 38,  0,  0,  0,  0,  0,  0, 29,  0,  0,  0,  0,  0,  0,  0,  0,  0, 30, 25, 39, 27,  0, 35, 22
6, 11047, 5,KE9CTZ,    -0.14, 3,   boost,   -1.51, 100228.00,   91.72,   -0.50,    0.00, 18.1, 4.19, 4.17, 4.03,   9.88,   0.70,  -0.05,   0.94,   0.08,  -0.20,  -0.34,  -0.01,   0.75,   2.97, 4.18, 0.00, 0.00, 0.00, 4.20, 1, 1,  9,  40.3885336, -87.5141538,   219.0, 2025, 10, 25, 19, 28, 31,        0,        0,   0,   0,   1.4,   0.8,   1.1,  0,  0, 25, 25,  0,  0,  0,  0, 38,  0,  0,  0,  0,  0,  0, 29,  0,  0,  0,  0,  0,  0,  0,  0,  0, 30, 25, 39, 27,  0, 35, 22
6, 11047, 5,KE9CTZ,    -0.13, 3,   boost,   -0.50, 100233.00,   91.30,   -0.92,    0.00, 18.1, 4.19, 4.17, 4.03,   9.86,   0.67,   0.14,  -0.15,   0.01,  -0.26,  -0.34,  -0.01,   0.75,   2.97, 4.18, 0.00, 0.00, 0.00, 4.20, 1, 1,  9,  40.3885336, -87.5141538,   219.0, 2025, 10, 25, 19, 28, 31,        0,        0,   0,   0,   1.4,   0.8,   1.1,  0,  0, 25, 25,  0,  0,  0,  0, 38,  0,  0,  0,  0,  0,  0, 29,  0,  0,  0,  0,  0,  0,  0,  0,  0, 30, 25, 39, 27,  0, 35, 22
6, 11047, 5,KE9CTZ,    -0.12, 3,   boost,   -0.00, 100233.00,   91.30,   -0.92,    0.00, 18.1, 4.19, 4.17, 4.03,   9.76,   0.58,   0.00,  -0.21,   0.20,  -0.20,  -0.34,  -0.01,   0.75,   2.97, 4.18, 0.00, 0.00, 0.00, 4.20, 1, 1,  9,  40.3885336, -87.5141538,   219.0, 2025, 10, 25, 19, 28, 31,        0,        0,   0,   0,   1.4,   0.8,   1.1,  0,  0, 25, 25,  0,  0,  0,  0, 38,  0,  0,  0,  0,  0,  0, 29,  0,  0,  0,  0,  0,  0,  0,  0,  0, 30, 25, 39, 27,  0, 35, 22
6, 11047, 5,KE9CTZ,    -0.11, 3,   boost,    0.50, 100229.00,   91.64,   -0.59,    0.00, 18.1, 4.19, 4.17, 4.03,   9.93,   0.44,   0.14,  -0.83,  -0.35,   0.17,  -0.34,  -0.01,   0.75,   2.97, 4.18, 0.00, 0.00, 0.00, 4.20, 1, 1,  9,  40.3885336, -87.5141538,   219.0, 2025, 10, 25, 19, 28, 31,        0,        0,   0,   0,   1.4,   0.8,   1.1,  0,  0, 25, 25,  0,  0,  0,  0, 38,  0,  0,  0,  0,  0,  0, 29,  0,  0,  0,  0,  0,  0,  0,  0,  0, 30, 25, 39, 27,  0, 35, 22
6, 11047, 5,KE9CTZ,    -0.10, 3,   boost,    2.01, 100229.00,   91.64,   -0.59,    0.01, 18.1, 4.19, 4.17, 4.03,   9.83,   0.36,  -0.22,  -1.74,   0.08,   0.04,  -0.34,  -0.01,   0.75,   2.97, 4.18, 0.00, 0.00, 0.00, 4.20, 1, 1,  9,  40.3885336, -87.5141538,   219.0, 2025, 10, 25, 19, 28, 31,        0,        0,   0,   0,   1.4,   0.8,   1.1,  0,  0, 25, 25,  0,  0,  0,  0, 38,  0,  0,  0,  0,  0,  0, 29,  0,  0,  0,  0,  0,  0,  0,  0,  0, 30, 25, 39, 27,  0, 35, 22
6, 11047, 5,KE9CTZ,    -0.09, 3,   boost,   -0.00, 100227.00,   91.80,   -0.42,    0.07, 18.1, 4.19, 4.17, 4.03,   9.69,   0.14,   0.01,   0.64,  -0.29,  -0.32,  -0.34,  -0.01,   0.75,   2.97, 4.18, 0.00, 0.00, 0.00, 4.20, 1, 1,  9,  40.3885336, -87.5141538,   219.0, 2025, 10, 25, 19, 28, 31,        0,        0,   0,   0,   1.4,   0.8,   1.1,  0,  0, 25, 25,  0,  0,  0,  0, 38,  0,  0,  0,  0,  0,  0, 29,  0,  0,  0,  0,  0,  0,  0,  0,  0, 30, 25, 39, 27,  0, 35, 22
6, 11047, 5,KE9CTZ,    -0.08, 3,   boost,    1.01, 100227.00,   91.80,   -0.42,    0.23, 18.1, 4.19, 4.17, 4.03,  10.09,   0.42,  -0.25,   1.56,   0.26,  -0.26,  -0.34,  -0.01,   0.75,   2.97, 4.18, 0.00, 0.00, 0.00, 4.20, 1, 1,  9,  40.3885336, -87.5141538,   219.0, 2025, 10, 25, 19, 28, 31,        0,        0,   0,   0,   1.4,   0.8,   1.1,  0,  0, 25, 25,  0,  0,  0,  0, 38,  0,  0,  0,  0,  0,  0, 29,  0,  0,  0,  0,  0,  0,  0,  0,  0, 30, 25, 39, 27,  0, 35, 22
6, 11047, 5,KE9CTZ,    -0.07, 3,   boost,    9.05, 100223.00,   92.14,   -0.08,    0.55, 18.1, 4.19, 4.17, 4.03,   9.86,   0.16,  -0.17,   2.96,   0.26,  -0.08,  -0.34,  -0.01,   0.75,   2.97, 4.18, 0.00, 0.00, 0.00, 4.20, 1, 1,  9,  40.3885336, -87.5141538,   219.0, 2025, 10, 25, 19, 28, 31,        0,        0,   0,   0,   1.4,   0.8,   1.1,  0,  0, 25, 25,  0,  0,  0,  0, 38,  0,  0,  0,  0,  0,  0, 29,  0,  0,  0,  0,  0,  0,  0,  0,  0, 30, 25, 39, 27,  0, 35, 22
6, 11047, 5,KE9CTZ,    -0.06, 3,   boost,   99.07, 100223.00,   92.14,   -0.08,    1.05, 18.1, 4.19, 4.17, 4.03,  17.72,   0.72,   1.26,   8.45,  -0.84,   0.04,  -0.34,  -0.01,   0.75,   2.97, 4.18, 0.00, 0.00, 0.00, 4.20, 1, 1,  9,  40.3885336, -87.5141538,   219.0, 2025, 10, 25, 19, 28, 31,        0,        0,   0,   0,   1.4,   0.8,   1.1,  0,  0, 25, 25,  0,  0,  0,  0, 38,  0,  0,  0,  0,  0,  0, 29,  0,  0,  0,  0,  0,  0,  0,  0,  0, 30, 25, 39, 27,  0, 35, 22
6, 11047, 5,KE9CTZ,    -0.05, 3,   boost,   99.58, 100384.00,   78.63,  -13.60,    1.75, 18.1, 4.19, 4.17, 4.03, 123.06,  -5.75,   0.47,  -0.21,   6.79, -10.09,  -0.34,  -0.01,   0.75,   2.97, 4.18, 0.00, 0.00, 0.00, 4.20, 1, 1,  9,  40.3885336, -87.5141538,   219.0, 2025, 10, 25, 19, 28, 31,        0,        0,   0,   0,   1.4,   0.8,   1.1,  0,  0, 25, 25,  0,  0,  0,  0, 38,  0,  0,  0,  0,  0,  0, 29,  0,  0,  0,  0,  0,  0,  0,  0,  0, 30, 25, 39, 27,  0, 35, 22
6, 11047, 5,KE9CTZ,    -0.04, 3,   boost,   95.05, 100384.00,   78.63,  -13.60,    2.60, 18.1, 4.19, 4.17, 4.03, 104.47, -10.98,  13.83,  -8.39, -11.40, -13.69,  -0.34,  -0.01,   0.75,   2.97, 4.18, 0.00, 0.00, 0.00, 4.20, 1, 1,  9,  40.3885336, -87.5141538,   219.0, 2025, 10, 25, 19, 28, 31,        0,        0,   0,   0,   1.4,   0.8,   1.1,  0,  0, 25, 25,  0,  0,  0,  0, 38,  0,  0,  0,  0,  0,  0, 29,  0,  0,  0,  0,  0,  0,  0,  0,  0, 30, 25, 39, 27,  0, 35, 22
6, 11047, 5,KE9CTZ,    -0.03, 3,   boost,  102.59, 100212.00,   93.06,    0.84,    3.55, 18.1, 4.19, 4.17, 4.03, 106.89,  -0.88,   7.96,   5.71,  -4.87,  -2.82,  -0.34,  -0.01,   0.76,   2.97, 4.18, 0.00, 0.00, 0.00, 4.20, 1, 1,  9,  40.3885336, -87.5141538,   219.0, 2025, 10, 25, 19, 28, 31,        0,        0,   0,   0,   1.4,   0.8,   1.1,  0,  0, 25, 25,  0,  0,  0,  0, 38,  0,  0,  0,  0,  0,  0, 29,  0,  0,  0,  0,  0,  0,  0,  0,  0, 30, 25, 39, 27,  0, 35, 22
6, 11047, 5,KE9CTZ,    -0.02, 3,   boost,   98.57, 100212.00,   93.06,    0.84,    4.54, 18.1, 4.19, 4.17, 4.03, 107.77,   0.19,   6.90,   5.46, -12.01,  -4.72,  -0.34,  -0.01,   0.76,   2.97, 4.18, 0.00, 0.00, 0.00, 4.20, 1, 1,  9,  40.3885336, -87.5141538,   219.0, 2025, 10, 25, 19, 28, 31,        0,        0,   0,   0,   1.4,   0.8,   1.1,  0,  0, 25, 25,  0,  0,  0,  0, 38,  0,  0,  0,  0,  0,  0, 29,  0,  0,  0,  0,  0,  0,  0,  0,  0, 30, 25, 39, 27,  0, 35, 22
6, 11047, 5,KE9CTZ,    -0.01, 3,   boost,   95.05, 100253.00,   89.62,   -2.60,    5.55, 18.1, 4.19, 4.17, 4.03, 107.90,  13.25,  -4.76,  12.54,  -6.33,   1.69,  -0.34,  -0.02,   0.75,   2.97, 4.18, 0.00, 0.00, 0.00, 4.20, 1, 1,  9,  40.3885336, -87.5141538,   219.0, 2025, 10, 25, 19, 28, 31,        0,        0,   0,   0,   1.4,   0.8,   1.1,  0,  0, 25, 25,  0,  0,  0,  0, 38,  0,  0,  0,  0,  0,  0, 29,  0,  0,  0,  0,  0,  0,  0,  0,  0, 30, 25, 39, 27,  0, 35, 22
6, 11047, 5,KE9CTZ,     0.00, 3,   boost,  117.68, 100253.00,   89.62,   -2.60,    6.58, 18.1, 4.19, 4.17, 4.03, 111.99,  27.26, -23.58,  -8.27,  40.91,  18.17,  -0.34,  -0.01,   0.76,   2.97, 4.18, 0.00, 0.00, 0.00, 4.20, 1, 1,  9,  40.3885336, -87.5141538,   219.0, 2025, 10, 25, 19, 28, 31,        0,        0,   0,   0,   1.4,   0.8,   1.1,  0,  0, 25, 25,  0,  0,  0,  0, 38,  0,  0,  0,  0,  0,  0, 29,  0,  0,  0,  0,  0,  0,  0,  0,  0, 30, 25, 39, 27,  0, 35, 22
6, 11047, 5,KE9CTZ,     0.00, 3,   boost,  117.68, 100253.00,   89.62,   -2.60,    6.58, 18.1, 4.19, 4.17, 4.03, 111.99,  27.26, -23.58,  -8.27,  40.91,  18.17,  -0.34,  -0.01,   0.76,   2.97, 4.18, 0.00, 0.00, 0.00, 4.20, 1, 1,  9,  40.3885336, -87.5141538,   219.0, 2025, 10, 25, 19, 28, 31,        0,        0,   0,   0,   1.4,   0.8,   1.1,  0,  0, 25, 25,  0,  0,  0,  0, 38,  0,  0,  0,  0,  0,  0, 29,  0,  0,  0,  0,  0,  0,  0,  0,  0, 30, 25, 39, 27,  0, 35, 22
6, 11047, 5,KE9CTZ,     0.00, 3,   boost,  117.68, 100253.00,   89.62,   -2.60,    6.58, 18.1, 4.19, 4.17, 4.03, 111.99,  27.26, -23.58,  -8.27,  40.91,  18.17,  -0.34,  -0.01,   0.76,   2.97, 4.18, 0.00, 0.00, 0.00, 4.20, 1, 1,  9,  40.3885336, -87.5141538,   219.0, 2025, 10, 25, 19, 28, 31,        0,        0,   0,   0,   1.4,   0.8,   1.1,  0,  0, 25, 25,  0,  0,  0,  0, 38,  0,  0,  0,  0,  0,  0, 29,  0,  0,  0,  0,  0,  0,  0,  0,  0, 30, 25, 39, 27,  0, 35, 22
6, 11047, 5,KE9CTZ,     0.00, 3,   boost,  117.68, 100253.00,   89.62,   -2.60,    6.58, 18.1, 4.19, 4.17, 4.03, 111.99,  27.26, -23.58,  -8.27,  40.91,  18.17,  -0.34,  -0.01,   0.76,   2.97, 4.18, 0.00, 0.00, 0.00, 4.20, 1, 1,  9,  40.3885336, -87.5141538,   219.0, 2025, 10, 25, 19, 28, 31,        0,        0,   0,   0,   1.4,   0.8,   1.1,  0,  0, 25, 25,  0,  0,  0,  0, 38,  0,  0,  0,  0,  0,  0, 29,  0,  0,  0,  0,  0,  0,  0,  0,  0, 30, 25, 39, 27,  0, 35, 22
6, 11047, 5,KE9CTZ,     0.00, 3,   boost,  117.68, 100253.00,   89.62,   -2.60,    6.58, 18.1, 4.19, 4.17, 4.03, 111.99,  27.26, -23.58,  -8.27,  40.91,  18.17,  -0.34,  -0.01,   0.76,   2.97, 4.18, 0.00, 0.00, 0.00, 4.20, 1, 1,  9,  40.3885336, -87.5141538,   219.0, 2025, 10, 25, 19, 28, 31,        0,        0,   0,   0,   1.4,   0.8,   1.1,  0,  0, 25, 25,  0,  0,  0,  0, 38,  0,  0,  0,  0,  0,  0, 29,  0,  0,  0,  0,  0,  0,  0,  0,  0, 30, 25, 39, 27,  0, 35, 22
6, 11047, 5,KE9CTZ,     0.00, 3,   boost,  117.68, 100253.00,   89.62,   -2.60,    6.58, 18.1, 4.19, 4.17, 4.03, 111.99,  27.26, -23.58,  -8.27,  40.91,  18.17,  -0.34,  -0.01,   0.76,   2.97, 4.18, 0.00, 0.00, 0.00, 4.20, 1, 1,  9,  40.3885336, -87.5141538,   219.0, 2025, 10, 25, 19, 28, 31,        0,        0,   0,   0,   1.4,   0.8,   1.1,  0,  0, 25, 25,  0,  0,  0,  0, 38,  0,  0,  0,  0,  0,  0, 29,  0,  0,  0,  0,  0,  0,  0,  0,  0, 30, 25, 39, 27,  0, 35, 22
6, 11047, 5,KE9CTZ,     0.00, 3,   boost,  117.68, 100253.00,   89.62,   -2.60,    6.58, 18.1, 4.19, 4.17, 4.03, 111.99,  27.26, -23.58,  -8.27,  40.91,  18.17,  -0.34,  -0.01,   0.76,   2.97, 4.18, 0.00, 0.00, 0.00, 4.20, 1, 1,  9,  40.3885336, -87.5141538,   219.0, 2025, 10, 25, 19, 28, 31,        0,        0,   0,   0,   1.4,   0.8,   1.1,  0,  0, 25, 25,  0,  0,  0,  0, 38,  0,  0,  0,  0,  0,  0, 29,  0,  0,  0,  0,  0,  0,  0,  0,  0, 30, 25, 39, 27,  0, 35, 22
6, 11047, 5,KE9CTZ,     0.00, 3,   boost,  117.68, 100253.00,   89.62,   -2.60,    6.58, 18.1, 4.19, 4.17, 4.03, 111.99,  27.26, -23.58,  -8.27,  40.91,  18.17,  -0.34,  -0.01,   0.76,   2.97, 4.18, 0.00, 0.00, 0.00, 4.20, 1, 1,  9,  40.3885336, -87.5141538,   219.0, 2025, 10, 25, 19, 28, 31,        0,        0,   0,   0,   1.4,   0.8,   1.1,  0,  0, 25, 25,  0,  0,  0,  0, 38,  0,  0,  0,  0,  0,  0, 29,  0,  0,  0,  0,  0,  0,  0,  0,  0, 30, 25, 39, 27,  0, 35, 22
6, 11047, 5,KE9CTZ,     0.00, 3,   boost,  117.68, 100253.00,   89.62,   -2.60,    6.58, 18.1, 4.19, 4.17, 4.03, 111.99,  27.26, -23.58,  -8.27,  40.91,  18.17,  -0.34,  -0.01,   0.76,   2.97, 4.18, 0.00, 0.00, 0.00, 4.20, 1, 1,  9,  40.3885336, -87.5141538,   219.0, 2025, 10, 25, 19, 28, 31,        0,        0,   0,   0,   1.4,   0.8,   1.1,  0,  0, 25, 25,  0,  0,  0,  0, 38,  0,  0,  0,  0,  0,  0, 29,  0,  0,  0,  0,  0,  0,  0,  0,  0, 30, 25, 39, 27,  0, 35, 22
6, 11047, 5,KE9CTZ,     0.00, 3,   boost,  117.68, 100253.00,   89.62,   -2.60,    6.58, 18.1, 4.19, 4.17, 4.03, 111.99,  27.26, -23.58,  -8.27,  40.91,  18.17,  -0.34,  -0.01,   0.76,   2.97, 4.18, 0.00, 0.00, 0.00, 4.20, 1, 1,  9,  40.3885336, -87.5141538,   219.0, 2025, 10, 25, 19, 28, 31,        0,        0,   0,   0,   1.4,   0.8,   1.1,  0,  0, 25, 25,  0,  0,  0,  0, 38,  0,  0,  0,  0,  0,  0, 29,  0,  0,  0,  0,  0,  0,  0,  0,  0, 30, 25, 39, 27,  0, 35, 22
6, 11047, 5,KE9CTZ,     0.00, 3,   boost,  117.68, 100253.00,   89.62,   -2.60,    6.58, 18.1, 4.19, 4.17, 4.03, 111.99,  27.26, -23.58,  -8.27,  40.91,  18.17,  -0.34,  -0.01,   0.76,   2.96, 4.18, 0.00, 0.00, 0.00, 4.20, 1, 1,  9,  40.3885336, -87.5141538,   219.0, 2025, 10, 25, 19, 28, 31,        0,        0,   0,   0,   1.4,   0.8,   1.1,  0,  0, 25, 25,  0,  0,  0,  0, 38,  0,  0,  0,  0,  0,  0, 29,  0,  0,  0,  0,  0,  0,  0,  0,  0, 30, 25, 39, 27,  0, 35, 22
6, 11047, 5,KE9CTZ,     0.00, 3,   boost,  117.68, 100253.00,   89.62,   -2.60,    6.58, 18.1, 4.19, 4.17, 4.03, 111.99,  27.26, -23.58,  -8.27,  40.91,  18.17,  -0.34,  -0.01,   0.76,   2.96, 4.18, 0.00, 0.00, 0.00, 4.20, 1, 1,  9,  40.3885336, -87.5141538,   219.0, 2025, 10, 25, 19, 28, 31,        0,        0,   0,   0,   1.4,   0.8,   1.1,  0,  0, 25, 25,  0,  0,  0,  0, 38,  0,  0,  0,  0,  0,  0, 29,  0,  0,  0,  0,  0,  0,  0,  0,  0, 30, 25, 39, 27,  0, 35, 22
6, 11047, 5,KE9CTZ,     0.00, 3,   boost,  117.68, 100253.00,   89.62,   -2.60,    6.58, 18.1, 4.19, 4.17, 4.03, 111.99,  27.26, -23.58,  -8.27,  40.91,  18.17,  -0.34,  -0.01,   0.76,   2.96, 4.18, 0.00, 0.00, 0.00, 4.20, 1, 1,  9,  40.3885336, -87.5141538,   219.0, 2025, 10, 25, 19, 28, 31,        0,        0,   0,   0,   1.4,   0.8,   1.1,  0,  0, 25, 25,  0,  0,  0,  0, 38,  0,  0,  0,  0,  0,  0, 29,  0,  0,  0,  0,  0,  0,  0,  0,  0, 30, 25, 39, 27,  0, 35, 22
6, 11047, 5,KE9CTZ,     0.00, 3,   boost,  117.68, 100253.00,   89.62,   -2.60,    6.58, 18.1, 4.19, 4.17, 4.03, 111.99,  27.26, -23.58,  -8.27,  40.91,  18.17,  -0.34,  -0.01,   0.76,   2.96, 4.18, 0.00, 0.00, 0.00, 4.20, 1, 1,  9,  40.3885336, -87.5141538,   219.0, 2025, 10, 25, 19, 28, 31,        0,        0,   0,   0,   1.4,   0.8,   1.1,  0,  0, 25, 25,  0,  0,  0,  0, 38,  0,  0,  0,  0,  0,  0, 29,  0,  0,  0,  0,  0,  0,  0,  0,  0, 30, 25, 39, 27,  0, 35, 22
6, 11047, 5,KE9CTZ,     0.00, 3,   boost,  117.68, 100253.00,   89.62,   -2.60,    6.58, 18.1, 4.19, 4.17, 4.03, 111.99,  27.26, -23.58,  -8.27,  40.91,  18.17,  -0.34,  -0.01,   0.76,   2.96, 4.18, 0.00, 0.00, 0.00, 4.20, 1, 1,  9,  40.3885336, -87.5141538,   219.0, 2025, 10, 25, 19, 28, 31,        0,        0,   0,   0,   1.4,   0.8,   1.1,  0,  0, 25, 25,  0,  0,  0,  0, 38,  0,  0,  0,  0,  0,  0, 29,  0,  0,  0,  0,  0,  0,  0,  0,  0, 30, 25, 39, 27,  0, 35, 22
6, 11047, 5,KE9CTZ,     0.00, 3,   boost,  117.68, 100253.00,   89.62,   -2.60,    6.58, 18.1, 4.19, 4.17, 4.03, 111.99,  27.26, -23.58,  -8.27,  40.91,  18.17,  -0.34,  -0.01,   0.76,   2.96, 4.18, 0.00, 0.00, 0.00, 4.20, 1, 1,  9,  40.3885336, -87.5141538,   219.0, 2025, 10, 25, 19, 28, 31,        0,        0,   0,   0,   1.4,   0.8,   1.1,  0,  0, 25, 25,  0,  0,  0,  0, 38,  0,  0,  0,  0,  0,  0, 29,  0,  0,  0,  0,  0,  0,  0,  0,  0, 30, 25, 39, 27,  0, 35, 22
6, 11047, 5,KE9CTZ,     0.00, 3,   boost,  117.68, 100253.00,   89.62,   -2.60,    6.58, 18.1, 4.19, 4.17, 4.03, 111.99,  27.26, -23.58,  -8.27,  40.91,  18.17,  -0.34,  -0.01,   0.76,   2.96, 4.18, 0.00, 0.00, 0.00, 4.20, 1, 1,  9,  40.3885336, -87.5141538,   219.0, 2025, 10, 25, 19, 28, 31,        0,        0,   0,   0,   1.4,   0.8,   1.1,  0,  0, 25, 25,  0,  0,  0,  0, 38,  0,  0,  0,  0,  0,  0, 29,  0,  0,  0,  0,  0,  0,  0,  0,  0, 30, 25, 39, 27,  0, 35, 22
6, 11047, 5,KE9CTZ,     0.00, 3,   boost,  117.68, 100253.00,   89.62,   -2.60,    6.58, 18.1, 4.19, 4.17, 4.03, 111.99,  27.26, -23.58,  -8.27,  40.91,  18.17,  -0.34,  -0.01,   0.76,   2.95, 4.18, 0.00, 0.00, 0.00, 4.20, 1, 1,  9,  40.3885336, -87.5141538,   219.0, 2025, 10, 25, 19, 28, 31,        0,        0,   0,   0,   1.4,   0.8,   1.1,  0,  0, 25, 25,  0,  0,  0,  0, 38,  0,  0,  0,  0,  0,  0, 29,  0,  0,  0,  0,  0,  0,  0,  0,  0, 30, 25, 39, 27,  0, 35, 22
6, 11047, 5,KE9CTZ,     0.00, 3,   boost,  117.68, 100253.00,   89.62,   -2.60,    6.58, 18.1, 4.19, 4.17, 4.03, 111.99,  27.26, -23.58,  -8.27,  40.91,  18.17,  -0.34,  -0.01,   0.76,   2.95, 4.18, 0.00, 0.00, 0.00, 4.20, 1, 1,  9,  40.3885336, -87.5141538,   219.0, 2025, 10, 25, 19, 28, 31,        0,        0,   0,   0,   1.4,   0.8,   1.1,  0,  0, 25, 25,  0,  0,  0,  0, 38,  0,  0,  0,  0,  0,  0, 29,  0,  0,  0,  0,  0,  0,  0,  0,  0, 30, 25, 39, 27,  0, 35, 22
6, 11047, 5,KE9CTZ,     0.00, 3,   boost,  117.68, 100253.00,   89.62,   -2.60,    6.58, 18.1, 4.19, 4.17, 4.03, 111.99,  27.26, -23.58,  -8.27,  40.91,  18.17,  -0.34,  -0.01,   0.76,   2.95, 4.18, 0.00, 0.00, 0.00, 4.20, 1, 1,  9,  40.3885336, -87.5141538,   219.0, 2025, 10, 25, 19, 28, 31,        0,        0,   0,   0,   1.4,   0.8,   1.1,  0,  0, 25, 25,  0,  0,  0,  0, 38,  0,  0,  0,  0,  0,  0, 29,  0,  0,  0,  0,  0,  0,  0,  0,  0, 30, 25, 39, 27,  0, 35, 22
6, 11047, 5,KE9CTZ,     0.00, 3,   boost,  117.68, 100253.00,   89.62,   -2.60,    6.58, 18.1, 4.19, 4.17, 4.03, 111.99,  27.26, -23.58,  -8.27,  40.91,  18.17,  -0.34,  -0.01,   0.76,   2.95, 4.18, 0.00, 0.00, 0.00, 4.20, 1, 1,  9,  40.3885336, -87.5141538,   219.0, 2025, 10, 25, 19, 28, 31,        0,        0,   0,   0,   1.4,   0.8,   1.1,  0,  0, 25, 25,  0,  0,  0,  0, 38,  0,  0,  0,  0,  0,  0, 29,  0,  0,  0,  0,  0,  0,  0,  0,  0, 30, 25, 39, 27,  0, 35, 22
6, 11047, 5,KE9CTZ,     0.00, 3,   boost,  117.68, 100253.00,   89.62,   -2.60,    6.58, 18.1, 4.19, 4.17, 4.03, 111.99,  27.26, -23.58,  -8.27,  40.91,  18.17,  -0.34,  -0.01,   0.76,   2.94, 4.18, 0.00, 0.00, 0.00, 4.20, 1, 1,  9,  40.3885336, -87.5141538,   219.0, 2025, 10, 25, 19, 28, 31,        0,        0,   0,   0,   1.4,   0.8,   1.1,  0,  0, 25, 25,  0,  0,  0,  0, 38,  0,  0,  0,  0,  0,  0, 29,  0,  0,  0,  0,  0,  0,  0,  0,  0, 30, 25, 39, 27,  0, 35, 22
6, 11047, 5,KE9CTZ,     0.00, 3,   boost,  117.68, 100253.00,   89.62,   -2.60,    6.58, 18.1, 4.19, 4.17, 4.03, 111.99,  27.26, -23.58,  -8.27,  40.91,  18.17,  -0.34,  -0.01,   0.76,   2.94, 4.18, 0.00, 0.00, 0.00, 4.20, 1, 1,  9,  40.3885336, -87.5141538,   219.0, 2025, 10, 25, 19, 28, 31,        0,        0,   0,   0,   1.4,   0.8,   1.1,  0,  0, 25, 25,  0,  0,  0,  0, 38,  0,  0,  0,  0,  0,  0, 29,  0,  0,  0,  0,  0,  0,  0,  0,  0, 30, 25, 39, 27,  0, 35, 22
6, 11047, 5,KE9CTZ,     0.00, 3,   boost,  117.68, 100253.00,   89.62,   -2.60,    6.58, 18.1, 4.19, 4.17, 4.03, 111.99,  27.26, -23.58,  -8.27,  40.91,  18.17,  -0.34,  -0.01,   0.76,   2.94, 4.18, 0.00, 0.00, 0.00, 4.20, 1, 1,  9,  40.3885336, -87.5141538,   219.0, 2025, 10, 25, 19, 28, 31,        0,        0,   0,   0,   1.4,   0.8,   1.1,  0,  0, 25, 25,  0,  0,  0,  0, 38,  0,  0,  0,  0,  0,  0, 29,  0,  0,  0,  0,  0,  0,  0,  0,  0, 30, 25, 39, 27,  0, 35, 22
6, 11047, 5,KE9CTZ,     0.00, 3,   boost,  117.68, 100253.00,   89.62,   -2.60,    6.58, 18.1, 4.19, 4.17, 4.03, 111.99,  27.26, -23.58,  -8.27,  40.91,  18.17,  -0.34,  -0.01,   0.76,   2.94, 4.18, 0.00, 0.00, 0.00, 4.20, 1, 1,  9,  40.3885336, -87.5141538,   219.0, 2025, 10, 25, 19, 28, 31,        0,        0,   0,   0,   1.4,   0.8,   1.1,  0,  0, 25, 25,  0,  0,  0,  0, 38,  0,  0,  0,  0,  0,  0, 29,  0,  0,  0,  0,  0,  0,  0,  0,  0, 30, 25, 39, 27,  0, 35, 22
6, 11047, 5,KE9CTZ,     0.00, 3,   boost,  117.68, 100253.00,   89.62,   -2.60,    6.58, 18.1, 4.19, 4.17, 4.03, 111.99,  27.26, -23.58,  -8.27,  40.91,  18.17,  -0.34,  -0.01,   0.76,   2.94, 4.18, 0.00, 0.00, 0.00, 4.20, 1, 1,  9,  40.3885336, -87.5141538,   219.0, 2025, 10, 25, 19, 28, 31,        0,        0,   0,   0,   1.4,   0.8,   1.1,  0,  0, 25, 25,  0,  0,  0,  0, 38,  0,  0,  0,  0,  0,  0, 29,  0,  0,  0,  0,  0,  0,  0,  0,  0, 30, 25, 39, 27,  0, 35, 22
6, 11047, 5,KE9CTZ,     0.00, 3,   boost,  117.68, 100253.00,   89.62,   -2.60,    6.58, 18.1, 4.19, 4.17, 4.03, 111.99,  27.26, -23.58,  -8.27,  40.91,  18.17,  -0.34,  -0.01,   0.76,   2.94, 4.18, 0.00, 0.00, 0.00, 4.20, 1, 1,  9,  40.3885336, -87.5141538,   219.0, 2025, 10, 25, 19, 28, 31,        0,        0,   0,   0,   1.4,   0.8,   1.1,  0,  0, 25, 25,  0,  0,  0,  0, 38,  0,  0,  0,  0,  0,  0, 29,  0,  0,  0,  0,  0,  0,  0,  0,  0, 30, 25, 39, 27,  0, 35, 22
6, 11047, 5,KE9CTZ,     0.00, 3,   boost,  117.68, 100253.00,   89.62,   -2.60,    6.58, 18.1, 4.19, 4.17, 4.03, 111.99,  27.26, -23.58,  -8.27,  40.91,  18.17,  -0.34,  -0.01,   0.76,   2.94, 4.18, 0.00, 0.00, 0.00, 4.20, 1, 1,  9,  40.3885336, -87.5141538,   219.0, 2025, 10, 25, 19, 28, 31,        0,        0,   0,   0,   1.4,   0.8,   1.1,  0,  0, 25, 25,  0,  0,  0,  0, 38,  0,  0,  0,  0,  0,  0, 29,  0,  0,  0,  0,  0,  0,  0,  0,  0, 30, 25, 39, 27,  0, 35, 22
6, 11047, 5,KE9CTZ,     0.00, 3,   boost,  117.68, 100253.00,   89.62,   -2.60,    6.58, 18.1, 4.19, 4.17, 4.03, 111.99,  27.26, -23.58,  -8.27,  40.91,  18.17,  -0.34,  -0.01,   0.76,   2.94, 4.18, 0.00, 0.00, 0.00, 4.20, 1, 1,  9,  40.3885336, -87.5141538,   219.0, 2025, 10, 25, 19, 28, 31,        0,        0,   0,   0,   1.4,   0.8,   1.1,  0,  0, 25, 25,  0,  0,  0,  0, 38,  0,  0,  0,  0,  0,  0, 29,  0,  0,  0,  0,  0,  0,  0,  0,  0, 30, 25, 39, 27,  0, 35, 22
6, 11047, 5,KE9CTZ,     0.00, 3,   boost,  117.68, 100253.00,   89.62,   -2.60,    6.58, 18.1, 4.19, 4.17, 4.03, 111.99,  27.26, -23.58,  -8.27,  40.91,  18.17,  -0.34,  -0.01,   0.76,   2.85, 4.18, 0.00, 0.00, 0.00, 4.20, 1, 1,  9,  40.3885336, -87.5141538,   219.0, 2025, 10, 25, 19, 28, 31,        0,        0,   0,   0,   1.4,   0.8,   1.1,  0,  0, 25, 25,  0,  0,  0,  0, 38,  0,  0,  0,  0,  0,  0, 29,  0,  0,  0,  0,  0,  0,  0,  0,  0, 30, 25, 39, 27,  0, 35, 22
6, 11047, 5,KE9CTZ,     0.00, 3,   boost,  117.68, 100253.00,   89.62,   -2.60,    6.58, 18.1, 4.19, 4.17, 4.03, 111.99,  27.26, -23.58,  -8.27,  40.91,  18.17,  -0.34,  -0.01,   0.76,   2.69, 4.18, 0.00, 0.00, 0.00, 4.20, 1, 1,  9,  40.3885336, -87.5141538,   219.0, 2025, 10, 25, 19, 28, 31,        0,        0,   0,   0,   1.4,   0.8,   1.1,  0,  0, 25, 25,  0,  0,  0,  0, 38,  0,  0,  0,  0,  0,  0, 29,  0,  0,  0,  0,  0,  0,  0,  0,  0, 30, 25, 39, 27,  0, 35, 22
6, 11047, 5,KE9CTZ,     0.00, 3,   boost,  117.68, 100253.00,   89.62,   -2.60,    6.58, 18.1, 4.19, 4.17, 4.03, 111.99,  27.26, -23.58,  -8.27,  40.91,  18.17,  -0.34,  -0.01,   0.76,   2.66, 4.18, 0.00, 0.00, 0.00, 4.20, 1, 1,  9,  40.3885336, -87.5141538,   219.0, 2025, 10, 25, 19, 28, 31,        0,        0,   0,   0,   1.4,   0.8,   1.1,  0,  0, 25, 25,  0,  0,  0,  0, 38,  0,  0,  0,  0,  0,  0, 29,  0,  0,  0,  0,  0,  0,  0,  0,  0, 30, 25, 39, 27,  0, 35, 22
6, 11047, 5,KE9CTZ,     0.00, 3,   boost,  117.68, 100253.00,   89.62,   -2.60,    6.58, 18.1, 4.19, 4.17, 4.03, 111.99,  27.26, -23.58,  -8.27,  40.91,  18.17,  -0.34,  -0.01,   0.76,   2.60, 4.18, 0.00, 0.00, 0.00, 4.20, 1, 1,  9,  40.3885336, -87.5141538,   219.0, 2025, 10, 25, 19, 28, 31,        0,        0,   0,   0,   1.4,   0.8,   1.1,  0,  0, 25, 25,  0,  0,  0,  0, 38,  0,  0,  0,  0,  0,  0, 29,  0,  0,  0,  0,  0,  0,  0,  0,  0, 30, 25, 39, 27,  0, 35, 22
6, 11047, 5,KE9CTZ,     0.00, 3,   boost,  117.68, 100253.00,   89.62,   -2.60,    6.58, 18.1, 4.19, 4.17, 4.03, 111.99,  27.26, -23.58,  -8.27,  40.91,  18.17,  -0.34,  -0.01,   0.76,   2.61, 4.18, 0.00, 0.00, 0.00, 4.20, 1, 1,  9,  40.3885336, -87.5141538,   219.0, 2025, 10, 25, 19, 28, 31,        0,        0,   0,   0,   1.4,   0.8,   1.1,  0,  0, 25, 25,  0,  0,  0,  0, 38,  0,  0,  0,  0,  0,  0, 29,  0,  0,  0,  0,  0,  0,  0,  0,  0, 30, 25, 39, 27,  0, 35, 22
6, 11047, 5,KE9CTZ,     0.00, 3,   boost,  117.68, 100253.00,   89.62,   -2.60,    6.58, 18.1, 4.19, 4.17, 4.03, 111.99,  27.26, -23.58,  -8.27,  40.91,  18.17,  -0.34,  -0.01,   0.76,   2.84, 4.18, 0.00, 0.00, 0.00, 4.20, 1, 1,  9,  40.3885336, -87.5141538,   219.0, 2025, 10, 25, 19, 28, 31,        0,        0,   0,   0,   1.4,   0.8,   1.1,  0,  0, 25, 25,  0,  0,  0,  0, 38,  0,  0,  0,  0,  0,  0, 29,  0,  0,  0,  0,  0,  0,  0,  0,  0, 30, 25, 39, 27,  0, 35, 22
6, 11047, 5,KE9CTZ,     0.01, 3,   boost,   99.58, 100202.00,   93.90,    1.68,    7.61, 18.1, 4.19, 4.17, 4.03, 108.25,  -1.34,   4.84, -21.64, -20.43,   1.75,  -0.34,  -0.01,   0.76,   2.83, 4.18, 0.00, 0.00, 0.00, 4.20, 1, 1,  9,  40.3885336, -87.5141538,   219.0, 2025, 10, 25, 19, 28, 31,        0,        0,   0,   0,   1.4,   0.8,   1.1,  0,  0, 25, 25,  0,  0,  0,  0, 38,  0,  0,  0,  0,  0,  0, 29,  0,  0,  0,  0,  0,  0,  0,  0,  0, 30, 25, 39, 27,  0, 35, 22
6, 11047, 5,KE9CTZ,     0.01, 3,   boost,   99.58, 100202.00,   93.90,    1.68,    7.61, 18.1, 4.19, 4.17, 4.03, 108.25,  -1.34,   4.84, -21.64, -20.43,   1.75,  -0.34,  -0.01,   0.76,   2.83, 4.18, 0.00, 0.00, 0.00, 4.20, 1, 1,  9,  40.3885336, -87.5141538,   219.0, 2025, 10, 25, 19, 28, 31,        0,        0,   0,   0,   1.4,   0.8,   1.1,  0,  0, 25, 25,  0,  0,  0,  0, 38,  0,  0,  0,  0,  0,  0, 29,  0,  0,  0,  0,  0,  0,  0,  0,  0, 30, 25, 39, 27,  0, 35, 22
6, 11047, 5,KE9CTZ,     0.02, 3,   boost,  103.60, 100202.00,   93.90,    1.68,    8.63, 18.1, 4.17, 4.17, 4.01, 111.12,   8.85, -13.19, -21.88,   6.00,   6.70,  -0.33,  -0.01,   0.76,   2.90, 4.17, 0.01, 0.00, 0.01, 4.18, 1, 1,  9,  40.3885336, -87.5141538,   219.0, 2025, 10, 25, 19, 28, 31,        0,        0,   0,   0,   1.4,   0.8,   1.1,  0,  0, 25, 25,  0,  0,  0,  0, 38,  0,  0,  0,  0,  0,  0, 29,  0,  0,  0,  0,  0,  0,  0,  0,  0, 30, 25, 39, 27,  0, 35, 22
6, 11047, 5,KE9CTZ,     0.02, 3,   boost,  103.60, 100202.00,   93.90,    1.68,    8.63, 18.1, 4.17, 4.17, 4.01, 111.12,   8.85, -13.19, -21.88,   6.00,   6.70,  -0.33,  -0.01,   0.76,   2.90, 4.17, 0.01, 0.00, 0.01, 4.18, 1, 1,  9,  40.3885336, -87.5141538,   219.0, 2025, 10, 25, 19, 28, 31,        0,        0,   0,   0,   1.4,   0.8,   1.1,  0,  0, 25, 25,  0,  0,  0,  0, 38,  0,  0,  0,  0,  0,  0, 29,  0,  0,  0,  0,  0,  0,  0,  0,  0, 30, 25, 39, 27,  0, 35, 22
6, 11047, 5,KE9CTZ,     0.03, 3,   boost,   99.07, 100207.00,   93.48,    1.26,    9.66, 18.1, 4.17, 4.17, 4.01, 110.80, -14.89,  12.87, -39.09,   2.33,   1.81,  -0.33,  -0.01,   0.76,   2.92, 4.17, 0.01, 0.00, 0.01, 4.18, 1, 1,  9,  40.3885336, -87.5141538,   219.0, 2025, 10, 25, 19, 28, 31,        0,        0,   0,   0,   1.4,   0.8,   1.1,  0,  0, 25, 25,  0,  0,  0,  0, 38,  0,  0,  0,  0,  0,  0, 29,  0,  0,  0,  0,  0,  0,  0,  0,  0, 30, 25, 39, 27,  0, 35, 22
6, 11047, 5,KE9CTZ,     0.04, 3,   boost,  101.08, 100207.00,   93.48,    1.26,   10.68, 18.1, 4.17, 4.17, 4.01, 110.14,  -4.94,  13.14, -49.84,   1.78,   7.25,  -0.33,  -0.01,   0.76,   3.00, 4.17, 0.01, 0.00, 0.01, 4.18, 1, 1,  9,  40.3885336, -87.5141538,   219.0, 2025, 10, 25, 19, 28, 31,        0,        0,   0,   0,   1.4,   0.8,   1.1,  0,  0, 25, 25,  0,  0,  0,  0, 38,  0,  0,  0,  0,  0,  0, 29,  0,  0,  0,  0,  0,  0,  0,  0,  0, 30, 25, 39, 27,  0, 35, 22
6, 11047, 5,KE9CTZ,     0.05, 3,   boost,  103.60, 100204.00,   93.74,    1.51,   11.70, 18.1, 4.17, 4.17, 4.01, 109.76,   0.27,   8.38, -51.73,   3.49,   1.45,  -0.33,  -0.02,   0.76,   3.02, 4.17, 0.01, 0.00, 0.01, 4.18, 1, 1,  9,  40.3885336, -87.5141538,   219.0, 2025, 10, 25, 19, 28, 31,        0,        0,   0,   0,   1.4,   0.8,   1.1,  0,  0, 25, 25,  0,  0,  0,  0, 38,  0,  0,  0,  0,  0,  0, 29,  0,  0,  0,  0,  0,  0,  0,  0,  0, 30, 25, 39, 27,  0, 35, 22
6, 11047, 5,KE9CTZ,     0.06, 3,   boost,  101.08, 100204.00,   93.74,    1.51,   12.72, 18.1, 4.17, 4.17, 4.01, 110.92,   6.16,   2.33, -33.78,  -5.42,  -3.50,  -0.34,  -0.02,   0.75,   2.98, 4.17, 0.01, 0.00, 0.01, 4.18, 1, 1,  9,  40.3885336, -87.5141538,   219.0, 2025, 10, 25, 19, 28, 31,        0,        0,   0,   0,   1.4,   0.8,   1.1,  0,  0, 25, 25,  0,  0,  0,  0, 38,  0,  0,  0,  0,  0,  0, 29,  0,  0,  0,  0,  0,  0,  0,  0,  0, 30, 25, 39, 27,  0, 35, 22
6, 11047, 5,KE9CTZ,     0.07, 3,   boost,  105.11, 100213.00,   92.98,    0.76,   13.75, 18.1, 4.17, 4.17, 4.01, 113.38,  -1.87,   8.88, -34.58,  -4.01,  -0.93,  -0.34,  -0.02,   0.75,   2.96, 4.17, 0.01, 0.00, 0.01, 4.18, 1, 1,  9,  40.3885336, -87.5141538,   219.0, 2025, 10, 25, 19, 28, 31,        0,        0,   0,   0,   1.4,   0.8,   1.1,  0,  0, 25, 25,  0,  0,  0,  0, 38,  0,  0,  0,  0,  0,  0, 29,  0,  0,  0,  0,  0,  0,  0,  0,  0, 30, 25, 39, 27,  0, 35, 22
6, 11047, 5,KE9CTZ,     0.08, 3,   boost,  104.10, 100213.00,   92.98,    0.76,   14.79, 18.1, 4.17, 4.17, 4.01, 112.01,  -1.05,   2.96,   0.21,   1.11,   4.26,  -0.34,  -0.02,   0.75,   3.00, 4.17, 0.01, 0.00, 0.01, 4.18, 1, 1,  9,  40.3885336, -87.5141538,   219.0, 2025, 10, 25, 19, 28, 31,        0,        0,   0,   0,   1.4,   0.8,   1.1,  0,  0, 25, 25,  0,  0,  0,  0, 38,  0,  0,  0,  0,  0,  0, 29,  0,  0,  0,  0,  0,  0,  0,  0,  0, 30, 25, 39, 27,  0, 35, 22
6, 11047, 5,KE9CTZ,     0.09, 3,   boost,  105.11, 100206.00,   93.57,    1.34,   15.83, 18.1, 4.17, 4.17, 4.01, 112.16,  -0.32,   2.25,   3.87,   0.69,   0.84,  -0.35,  -0.02,   0.75,   3.01, 4.17, 0.01, 0.00, 0.01, 4.18, 1, 1,  9,  40.3885336, -87.5141538,   219.0, 2025, 10, 25, 19, 28, 31,        0,        0,   0,   0,   1.4,   0.8,   1.1,  0,  0, 25, 25,  0,  0,  0,  0, 38,  0,  0,  0,  0,  0,  0, 29,  0,  0,  0,  0,  0,  0,  0,  0,  0, 30, 25, 39, 27,  0, 35, 22
6, 11047, 5,KE9CTZ,     0.10, 3,   boost,  104.10, 100206.00,   93.57,    1.34,   16.87, 18.1, 4.17, 4.17, 4.01, 114.65,   5.13,  -5.37,  -8.82,   4.59,   5.78,  -0.34,  -0.02,   0.75,   3.08, 4.17, 0.01, 0.00, 0.01, 4.18, 1, 1,  9,  40.3885336, -87.5141538,   219.0, 2025, 10, 25, 19, 28, 31,        0,        0,   0,   0,   1.4,   0.8,   1.1,  0,  0, 25, 25,  0,  0,  0,  0, 38,  0,  0,  0,  0,  0,  0, 29,  0,  0,  0,  0,  0,  0,  0,  0,  0, 30, 25, 39, 27,  0, 35, 22
6, 11047, 5,KE9CTZ,     0.11, 3,   boost,  106.11, 100191.00,   94.83,    2.60,   17.92, 18.1, 4.17, 4.17, 4.01, 113.74,   0.84,   4.02, -20.54,   3.19,   2.30,  -0.34,  -0.02,   0.75,   3.11, 4.17, 0.01, 0.00, 0.01, 4.18, 1, 1,  9,  40.3885336, -87.5141538,   219.0, 2025, 10, 25, 19, 28, 31,        0,        0,   0,   0,   1.4,   0.8,   1.1,  0,  0, 25, 25,  0,  0,  0,  0, 38,  0,  0,  0,  0,  0,  0, 29,  0,  0,  0,  0,  0,  0,  0,  0,  0, 30, 25, 39, 27,  0, 35, 22
6, 11047, 5,KE9CTZ,     0.12, 3,   boost,  105.11, 100191.00,   94.83,    2.60,   18.96, 18.1, 4.17, 4.17, 4.01, 113.46,  -0.70,   6.40, -42.63,   4.59,   3.83,  -0.35,  -0.02,   0.75,   3.15, 4.17, 0.01, 0.00, 0.01, 4.18, 1, 1,  9,  40.3885336, -87.5141538,   219.0, 2025, 10, 25, 19, 28, 31,        0,        0,   0,   0,   1.4,   0.8,   1.1,  0,  0, 25, 25,  0,  0,  0,  0, 38,  0,  0,  0,  0,  0,  0, 29,  0,  0,  0,  0,  0,  0,  0,  0,  0, 30, 25, 39, 27,  0, 35, 22
6, 11047, 5,KE9CTZ,     0.13, 3,   boost,   98.07, 100202.00,   93.90,    1.68,   19.99, 18.1, 4.17, 4.17, 4.01, 115.01,   0.24,   6.58, -23.41,   9.48,   6.70,  -0.34,  -0.02,   0.75,   3.24, 4.17, 0.01, 0.00, 0.01, 4.18, 1, 1,  9,  40.3885336, -87.5141538,   219.0, 2025, 10, 25, 19, 28, 31,        0,        0,   0,   0,   1.4,   0.8,   1.1,  0,  0, 25, 25,  0,  0,  0,  0, 38,  0,  0,  0,  0,  0,  0, 29,  0,  0,  0,  0,  0,  0,  0,  0,  0, 30, 25, 39, 27,  0, 35, 22
6, 11047, 5,KE9CTZ,     0.14, 3,   boost,  105.11, 100202.00,   93.90,    1.68,   21.03, 18.1, 4.17, 4.17, 4.01, 113.24,   3.10,   9.04,  -8.82,  10.57,   7.55,  -0.34,  -0.02,   0.75,   3.34, 4.17, 0.01, 0.00, 0.01, 4.18, 1, 1,  9,  40.3885336, -87.5141538,   219.0, 2025, 10, 25, 19, 28, 31,        0,        0,   0,   0,   1.4,   0.8,   1.1,  0,  0, 25, 25,  0,  0,  0,  0, 38,  0,  0,  0,  0,  0,  0, 29,  0,  0,  0,  0,  0,  0,  0,  0,  0, 30, 25, 39, 27,  0, 35, 22
6, 11047, 5,KE9CTZ,     0.15, 3,   boost,  106.62, 100200.00,   94.07,    1.85,   22.06, 18.1, 4.17, 4.17, 4.01, 113.30,  -1.38,   2.37,  14.62,   8.56,   3.16,  -0.34,  -0.02,   0.74,   3.40, 4.17, 0.01, 0.00, 0.01, 4.18, 1, 1,  9,  40.3885336, -87.5141538,   219.0, 2025, 10, 25, 19, 28, 31,        0,        0,   0,   0,   1.4,   0.8,   1.1,  0,  0, 25, 25,  0,  0,  0,  0, 38,  0,  0,  0,  0,  0,  0, 29,  0,  0,  0,  0,  0,  0,  0,  0,  0, 30, 25, 39, 27,  0, 35, 22
6, 11047, 5,KE9CTZ,     0.16, 3,   boost,  102.59, 100200.00,   94.07,    1.85,   23.10, 18.1, 4.17, 4.17, 4.01, 112.74,  -2.44,   1.10,  -1.01,   6.06,   6.09,  -0.34,  -0.02,   0.74,   3.47, 4.17, 0.01, 0.00, 0.01, 4.18, 1, 1,  9,  40.3885336, -87.5141538,   219.0, 2025, 10, 25, 19, 28, 31,        0,        0,   0,   0,   1.4,   0.8,   1.1,  0,  0, 25, 25,  0,  0,  0,  0, 38,  0,  0,  0,  0,  0,  0, 29,  0,  0,  0,  0,  0,  0,  0,  0,  0, 30, 25, 39, 27,  0, 35, 22
6, 11047, 5,KE9CTZ,     0.17, 3,   boost,  102.59, 100192.00,   94.74,    2.52,   24.13, 18.1, 4.17, 4.17, 4.01, 111.43,  -2.65,   9.24,   4.67,   3.92,   6.70,  -0.35,  -0.03,   0.74,   3.55, 4.17, 0.01, 0.00, 0.01, 4.18, 1, 1,  9,  40.3885336, -87.5141538,   219.0, 2025, 10, 25, 19, 28, 31,        0,        0,   0,   0,   1.4,   0.8,   1.1,  0,  0, 25, 25,  0,  0,  0,  0, 38,  0,  0,  0,  0,  0,  0, 29,  0,  0,  0,  0,  0,  0,  0,  0,  0, 30, 25, 39, 27,  0, 35, 22
6, 11047, 5,KE9CTZ,     0.18, 3,   boost,  103.60, 100192.00,   94.74,    2.52,   25.17, 18.1, 4.17, 4.17, 4.01, 112.08,  14.01,  -8.30,  17.36,  17.10,  12.68,  -0.35,  -0.02,   0.74,   3.72, 4.17, 0.01, 0.00, 0.01, 4.18, 1, 1,  9,  40.3885336, -87.5141538,   219.0, 2025, 10, 25, 19, 28, 31,        0,        0,   0,   0,   1.4,   0.8,   1.1,  0,  0, 25, 25,  0,  0,  0,  0, 38,  0,  0,  0,  0,  0,  0, 29,  0,  0,  0,  0,  0,  0,  0,  0,  0, 30, 25, 39, 27,  0, 35, 22
6, 11047, 5,KE9CTZ,     0.19, 3,   boost,  106.62, 100179.00,   95.84,    3.61,   26.21, 18.1, 4.17, 4.17, 4.01, 113.59,   0.34,   8.79,  21.82,  -0.60,   1.20,  -0.35,  -0.02,   0.74,   3.73, 4.17, 0.01, 0.00, 0.01, 4.18, 1, 1,  9,  40.3885336, -87.5141538,   219.0, 2025, 10, 25, 19, 28, 31,        0,        0,   0,   0,   1.4,   0.8,   1.1,  0,  0, 25, 25,  0,  0,  0,  0, 38,  0,  0,  0,  0,  0,  0, 29,  0,  0,  0,  0,  0,  0,  0,  0,  0, 30, 25, 39, 27,  0, 35, 22
6, 11047, 5,KE9CTZ,     0.20, 3,   boost,  102.09, 100179.00,   95.84,    3.61,   27.24, 18.1, 4.17, 4.17, 4.01, 114.94,   3.91,   4.02,  35.12,   3.92,   8.65,  -0.35,  -0.02,   0.74,   3.83, 4.17, 0.01, 0.00, 0.01, 4.18, 1, 1,  9,  40.3885336, -87.5141538,   219.0, 2025, 10, 25, 19, 28, 31,        0,        0,   0,   0,   1.4,   0.8,   1.1,  0,  0, 25, 25,  0,  0,  0,  0, 38,  0,  0,  0,  0,  0,  0, 29,  0,  0,  0,  0,  0,  0,  0,  0,  0, 30, 25, 39, 27,  0, 35, 22
6, 11047, 5,KE9CTZ,     0.21, 3,   boost,  105.61, 100163.00,   97.18,    4.96,   28.28, 18.1, 4.17, 4.17, 4.01, 113.99,  -6.41,  11.04,  38.12,   4.84,   6.82,  -0.35,  -0.02,   0.74,   3.91, 4.17, 0.01, 0.00, 0.01, 4.18, 1, 1,  9,  40.3885336, -87.5141538,   219.0, 2025, 10, 25, 19, 28, 31,        0,        0,   0,   0,   1.4,   0.8,   1.1,  0,  0, 25, 25,  0,  0,  0,  0, 38,  0,  0,  0,  0,  0,  0, 29,  0,  0,  0,  0,  0,  0,  0,  0,  0, 30, 25, 39, 27,  0, 35, 22
6, 11047, 5,KE9CTZ,     0.22, 3,   boost,  102.59, 100163.00,   97.18,    4.96,   29.32, 18.1, 4.17, 4.17, 4.01, 115.09,  -0.22,   3.19,  41.35,   0.26,   2.91,  -0.35,  -0.02,   0.74,   3.94, 4.17, 0.01, 0.00, 0.01, 4.18, 1, 1,  9,  40.3885336, -87.5141538,   219.0, 2025, 10, 25, 19, 28, 31,        0,        0,   0,   0,   1.4,   0.8,   1.1,  0,  0, 25, 25,  0,  0,  0,  0, 38,  0,  0,  0,  0,  0,  0, 29,  0,  0,  0,  0,  0,  0,  0,  0,  0, 30, 25, 39, 27,  0, 35, 22
6, 11047, 5,KE9CTZ,     0.23, 3,   boost,  103.10, 100159.00,   97.52,    5.29,   30.35, 18.1, 4.17, 4.17, 4.01, 113.71,  -1.24,   4.46,  44.71,   3.68,   4.80,  -0.35,  -0.02,   0.74,   3.99, 4.17, 0.01, 0.00, 0.01, 4.18, 1, 1,  9,  40.3885336, -87.5141538,   219.0, 2025, 10, 25, 19, 28, 31,        0,        0,   0,   0,   1.4,   0.8,   1.1,  0,  0, 25, 25,  0,  0,  0,  0, 38,  0,  0,  0,  0,  0,  0, 29,  0,  0,  0,  0,  0,  0,  0,  0,  0, 30, 25, 39, 27,  0, 35, 22
6, 11047, 5,KE9CTZ,     0.24, 3,   boost,  105.11, 100159.00,   97.52,    5.29,   31.39, 18.1, 4.17, 4.17, 4.01, 113.10,   1.42,  -2.20,  47.09,   0.63,   2.18,  -0.34,  -0.02,   0.75,   4.02, 4.17, 0.01, 0.00, 0.01, 4.18, 1, 1,  9,  40.3885336, -87.5141538,   219.0, 2025, 10, 25, 19, 28, 31,        0,        0,   0,   0,   1.4,   0.8,   1.1,  0,  0, 25, 25,  0,  0,  0,  0, 38,  0,  0,  0,  0,  0,  0, 29,  0,  0,  0,  0,  0,  0,  0,  0,  0, 30, 25, 39, 27,  0, 35, 22
6, 11047, 5,KE9CTZ,     0.25, 3,   boost,  103.60, 100155.00,   97.85,    5.63,   32.42, 18.1, 4.17, 4.17, 4.01, 112.02,   4.89,   0.09,  45.20,   2.09,   1.94,  -0.34,  -0.02,   0.75,   4.04, 4.17, 0.01, 0.00, 0.01, 4.18, 1, 1,  9,  40.3885336, -87.5141538,   219.0, 2025, 10, 25, 19, 28, 31,        0,        0,   0,   0,   1.4,   0.8,   1.1,  0,  0, 25, 25,  0,  0,  0,  0, 38,  0,  0,  0,  0,  0,  0, 29,  0,  0,  0,  0,  0,  0,  0,  0,  0, 30, 25, 39, 27,  0, 35, 22
6, 11047, 5,KE9CTZ,     0.26, 3,   boost,  103.60, 100155.00,   97.85,    5.63,   33.46, 18.1, 4.17, 4.17, 4.01, 112.54,   4.10,   2.49,  42.27,  -0.17,   3.52,  -0.34,  -0.02,   0.75,   4.07, 4.17, 0.01, 0.00, 0.01, 4.18, 1, 1,  9,  40.3885336, -87.5141538,   219.0, 2025, 10, 25, 19, 28, 31,        0,        0,   0,   0,   1.4,   0.8,   1.1,  0,  0, 25, 25,  0,  0,  0,  0, 38,  0,  0,  0,  0,  0,  0, 29,  0,  0,  0,  0,  0,  0,  0,  0,  0, 30, 25, 39, 27,  0, 35, 22
6, 11047, 5,KE9CTZ,     0.27, 3,   boost,  103.60, 100148.00,   98.44,    6.22,   34.50, 18.1, 4.17, 4.17, 4.01, 113.14,   1.18,   5.81,  40.25,  -0.84,   2.61,  -0.34,  -0.02,   0.75,   4.10, 4.17, 0.01, 0.00, 0.01, 4.18, 1, 1,  9,  40.3885336, -87.5141538,   219.0, 2025, 10, 25, 19, 28, 31,        0,        0,   0,   0,   1.4,   0.8,   1.1,  0,  0, 25, 25,  0,  0,  0,  0, 38,  0,  0,  0,  0,  0,  0, 29,  0,  0,  0,  0,  0,  0,  0,  0,  0, 30, 25, 39, 27,  0, 35, 22
6, 11047, 5,KE9CTZ,     0.28, 3,   boost,  104.60, 100148.00,   98.44,    6.22,   35.54, 18.1, 4.17, 4.17, 4.01, 113.39,  -1.54,   6.67,  41.17,  -0.96,   1.26,  -0.34,  -0.02,   0.75,   4.11, 4.17, 0.01, 0.00, 0.01, 4.18, 1, 1,  9,  40.3885336, -87.5141538,   219.0, 2025, 10, 25, 19, 28, 31,        0,        0,   0,   0,   1.4,   0.8,   1.1,  0,  0, 25, 25,  0,  0,  0,  0, 38,  0,  0,  0,  0,  0,  0, 29,  0,  0,  0,  0,  0,  0,  0,  0,  0, 30, 25, 39, 27,  0, 35, 22
6, 11047, 5,KE9CTZ,     0.29, 3,   boost,  105.61, 100141.00,   99.03,    6.80,   36.58, 18.1, 4.17, 4.17, 4.01, 113.38,  -3.30,   6.13,  43.55,  -2.55,   0.72,  -0.34,  -0.02,   0.76,   4.11, 4.17, 0.01, 0.00, 0.01, 4.18, 1, 1,  9,  40.3885336, -87.5141538,   219.0, 2025, 10, 25, 19, 28, 31,        0,        0,   0,   0,   1.4,   0.8,   1.1,  0,  0, 25, 25,  0,  0,  0,  0, 38,  0,  0,  0,  0,  0,  0, 29,  0,  0,  0,  0,  0,  0,  0,  0,  0, 30, 25, 39, 27,  0, 35, 22
6, 11047, 5,KE9CTZ,     0.30, 3,   boost,  102.09, 100141.00,   99.03,    6.80,   37.62, 18.1, 4.17, 4.17, 4.01, 113.51,  -1.95,   3.65,  45.62,  -2.73,  -0.08,  -0.35,  -0.02,   0.76,   4.10, 4.17, 0.01, 0.00, 0.01, 4.18, 1, 1,  9,  40.3885336, -87.5141538,   219.0, 2025, 10, 25, 19, 28, 31,        0,        0,   0,   0,   1.4,   0.8,   1.1,  0,  0, 25, 25,  0,  0,  0,  0, 38,  0,  0,  0,  0,  0,  0, 29,  0,  0,  0,  0,  0,  0,  0,  0,  0, 30, 25, 39, 27,  0, 35, 22
6, 11047, 5,KE9CTZ,     0.31, 3,   boost,  104.60, 100128.00,  100.12,    7.90,   38.67, 18.1, 4.17, 4.17, 4.01, 113.97,   1.65,   1.51,  46.78,  -4.01,  -1.24,  -0.35,  -0.02,   0.76,   4.08, 4.17, 0.01, 0.00, 0.01, 4.18, 1, 1,  9,  40.3885336, -87.5141538,   219.0, 2025, 10, 25, 19, 28, 31,        0,        0,   0,   0,   1.4,   0.8,   1.1,  0,  0, 25, 25,  0,  0,  0,  0, 38,  0,  0,  0,  0,  0,  0, 29,  0,  0,  0,  0,  0,  0,  0,  0,  0, 30, 25, 39, 27,  0, 35, 22
6, 11047, 5,KE9CTZ,     0.32, 3,   boost,  110.14, 100128.00,  100.12,    7.90,   39.72, 18.1, 4.17, 4.17, 4.01, 113.86,   3.46,   0.70,  44.65,  -4.14,  -0.93,  -0.35,  -0.02,   0.76,   4.06, 4.17, 0.01, 0.00, 0.01, 4.18, 1, 1,  9,  40.3885336, -87.5141538,   219.0, 2025, 10, 25, 19, 28, 31,        0,        0,   0,   0,   1.4,   0.8,   1.1,  0,  0, 25, 25,  0,  0,  0,  0, 38,  0,  0,  0,  0,  0,  0, 29,  0,  0,  0,  0,  0,  0,  0,  0,  0, 30, 25, 39, 27,  0, 35, 22
6, 11047, 5,KE9CTZ,     0.33, 3,   boost,  106.11, 100114.00,  101.30,    9.07,   40.78, 18.1, 4.17, 4.17, 4.01, 114.70,   3.88,   1.90,  41.78,  -4.87,  -1.79,  -0.35,  -0.02,   0.76,   4.03, 4.17, 0.01, 0.00, 0.01, 4.18, 1, 1,  9,  40.3885336, -87.5141538,   219.0, 2025, 10, 25, 19, 28, 31,        0,        0,   0,   0,   1.4,   0.8,   1.1,  0,  0, 25, 25,  0,  0,  0,  0, 38,  0,  0,  0,  0,  0,  0, 29,  0,  0,  0,  0,  0,  0,  0,  0,  0, 30, 25, 39, 27,  0, 35, 22
6, 11047, 5,KE9CTZ,     0.34, 3,   boost,  102.59, 100114.00,  101.30,    9.07,   41.84, 18.1, 4.18, 4.17, 4.00, 114.08,   2.36,   3.84,  39.34,  -5.91,  -1.73,  -0.35,  -0.01,   0.76,   4.00, 4.17, 0.00, 0.00, 0.00, 4.43, 1, 1,  9,  40.3885336, -87.5141538,   219.0, 2025, 10, 25, 19, 28, 31,        0,        0,   0,   0,   1.4,   0.8,   1.1,  0,  0, 25, 25,  0,  0,  0,  0, 38,  0,  0,  0,  0,  0,  0, 29,  0,  0,  0,  0,  0,  0,  0,  0,  0, 30, 25, 39, 27,  0, 35, 22
6, 11047, 5,KE9CTZ,     0.34, 3,   boost,  102.59, 100114.00,  101.30,    9.07,   41.84, 18.1, 4.18, 4.17, 4.00, 114.08,   2.36,   3.84,  39.34,  -5.91,  -1.73,  -0.35,  -0.01,   0.76,   4.00, 4.17, 0.00, 0.00, 0.00, 4.43, 1, 1,  9,  40.3885336, -87.5141538,   219.0, 2025, 10, 25, 19, 28, 31,        0,        0,   0,   0,   1.4,   0.8,   1.1,  0,  0, 25, 25,  0,  0,  0,  0, 38,  0,  0,  0,  0,  0,  0, 29,  0,  0,  0,  0,  0,  0,  0,  0,  0, 30, 25, 39, 27,  0, 35, 22
6, 11047, 5,KE9CTZ,     0.34, 3,   boost,  102.59, 100114.00,  101.30,    9.07,   41.84, 18.1, 4.18, 4.17, 4.00, 114.08,   2.36,   3.84,  39.34,  -5.91,  -1.73,  -0.35,  -0.01,   0.76,   4.00, 4.17, 0.00, 0.00, 0.00, 4.43, 1, 1,  9,  40.3885336, -87.5141538,   219.0, 2025, 10, 25, 19, 28, 31,        0,        0,   0,   0,   1.4,   0.8,   1.1,  0,  0, 25, 25,  0,  0,  0,  0, 38,  0,  0,  0,  0,  0,  0, 29,  0,  0,  0,  0,  0,  0,  0,  0,  0, 30, 25, 39, 27,  0, 35, 22
6, 11047, 5,KE9CTZ,     0.34, 3,   boost,  102.59, 100114.00,  101.30,    9.07,   41.84, 18.1, 4.18, 4.17, 4.00, 114.08,   2.36,   3.84,  39.34,  -5.91,  -1.73,  -0.35,  -0.01,   0.76,   4.00, 4.17, 0.00, 0.00, 0.00, 4.43, 1, 1,  9,  40.3885336, -87.5141538,   219.0, 2025, 10, 25, 19, 28, 31,        0,        0,   0,   0,   1.4,   0.8,   1.1,  0,  0, 25, 25,  0,  0,  0,  0, 38,  0,  0,  0,  0,  0,  0, 29,  0,  0,  0,  0,  0,  0,  0,  0,  0, 30, 25, 39, 27,  0, 35, 22
6, 11047, 5,KE9CTZ,     0.35, 3,   boost,  107.12, 100106.00,  101.97,    9.75,   42.89, 18.1, 4.18, 4.17, 4.00, 114.02,  -1.29,   6.07,  38.73,  -6.03,  -2.46,  -0.34,  -0.01,   0.77,   3.97, 4.17, 0.00, 0.00, 0.00, 4.43, 1, 1,  9,  40.3885573, -87.5141252,   226.0, 2025, 10, 25, 19, 28, 32,        4,        8,  43,  63,   1.4,   0.8,   1.1,  0,  0, 24, 25,  0,  0,  0,  0, 27,  0,  0,  0,  0,  0,  0, 22,  0,  0,  0,  0,  0,  0,  0,  0,  0, 22, 26, 35, 36,  0, 35, 24
6, 11047, 5,KE9CTZ,     0.36, 3,   boost,  107.12, 100106.00,  101.97,    9.75,   43.95, 18.1, 4.18, 4.17, 4.00, 114.09,  -2.48,   5.81,  40.01,  -7.37,  -3.68,  -0.34,  -0.01,   0.77,   3.92, 4.17, 0.00, 0.00, 0.00, 4.43, 1, 1,  9,  40.3885573, -87.5141252,   226.0, 2025, 10, 25, 19, 28, 32,        4,        8,  43,  63,   1.4,   0.8,   1.1,  0,  0, 24, 25,  0,  0,  0,  0, 27,  0,  0,  0,  0,  0,  0, 22,  0,  0,  0,  0,  0,  0,  0,  0,  0, 22, 26, 35, 36,  0, 35, 24
6, 11047, 5,KE9CTZ,     0.37, 3,   boost,  105.11, 100094.00,  102.98,   10.76,   45.01, 18.1, 4.18, 4.17, 4.00, 114.25,  -1.98,   4.45,  41.84,  -7.68,  -3.86,  -0.34,  -0.01,   0.77,   3.87, 4.17, 0.00, 0.00, 0.00, 4.43, 1, 1,  9,  40.3885573, -87.5141252,   226.0, 2025, 10, 25, 19, 28, 32,        4,        8,  43,  63,   1.4,   0.8,   1.1,  0,  0, 24, 25,  0,  0,  0,  0, 27,  0,  0,  0,  0,  0,  0, 22,  0,  0,  0,  0,  0,  0,  0,  0,  0, 22, 26, 35, 36,  0, 35, 24
6, 11047, 5,KE9CTZ,     0.38, 3,   boost,  108.12, 100094.00,  102.98,   10.76,   46.07, 18.1, 4.18, 4.17, 4.00, 114.06,   0.06,   2.93,  41.84,  -8.84,  -5.21,  -0.34,  -0.01,   0.77,   3.81, 4.17, 0.00, 0.00, 0.00, 4.43, 1, 1,  9,  40.3885573, -87.5141252,   226.0, 2025, 10, 25, 19, 28, 32,        4,        8,  43,  63,   1.4,   0.8,   1.1,  0,  0, 24, 25,  0,  0,  0,  0, 27,  0,  0,  0,  0,  0,  0, 22,  0,  0,  0,  0,  0,  0,  0,  0,  0, 22, 26, 35, 36,  0, 35, 24
6, 11047, 5,KE9CTZ,     0.39, 3,   boost,  105.61, 100084.00,  103.82,   11.60,   47.13, 18.1, 4.18, 4.17, 4.00, 114.37,   3.51,   0.53,  40.25,  -8.96,  -5.45,  -0.34,  -0.01,   0.77,   3.75, 4.17, 0.00, 0.00, 0.00, 4.43, 1, 1,  9,  40.3885573, -87.5141252,   226.0, 2025, 10, 25, 19, 28, 32,        4,        8,  43,  63,   1.4,   0.8,   1.1,  0,  0, 24, 25,  0,  0,  0,  0, 27,  0,  0,  0,  0,  0,  0, 22,  0,  0,  0,  0,  0,  0,  0,  0,  0, 22, 26, 35, 36,  0, 35, 24
6, 11047, 5,KE9CTZ,     0.40, 3,   boost,  105.61, 100084.00,  103.82,   11.60,   48.19, 18.1, 4.18, 4.17, 4.00, 114.36,   4.08,   1.02,  37.02,  -9.87,  -6.06,  -0.34,  -0.00,   0.78,   3.69, 4.17, 0.00, 0.00, 0.00, 4.43, 1, 1,  9,  40.3885573, -87.5141252,   226.0, 2025, 10, 25, 19, 28, 32,        4,        8,  43,  63,   1.4,   0.8,   1.1,  0,  0, 24, 25,  0,  0,  0,  0, 27,  0,  0,  0,  0,  0,  0, 22,  0,  0,  0,  0,  0,  0,  0,  0,  0, 22, 26, 35, 36,  0, 35, 24
6, 11047, 5,KE9CTZ,     0.41, 3,   boost,  105.61, 100069.00,  105.08,   12.86,   49.26, 18.1, 4.18, 4.17, 4.00, 114.16,   2.22,   3.26,  34.15, -10.48,  -6.30,  -0.34,  -0.00,   0.78,   3.63, 4.17, 0.00, 0.00, 0.00, 4.43, 1, 1,  9,  40.3885573, -87.5141252,   226.0, 2025, 10, 25, 19, 28, 32,        4,        8,  43,  63,   1.4,   0.8,   1.1,  0,  0, 24, 25,  0,  0,  0,  0, 27,  0,  0,  0,  0,  0,  0, 22,  0,  0,  0,  0,  0,  0,  0,  0,  0, 22, 26, 35, 36,  0, 35, 24
6, 11047, 5,KE9CTZ,     0.42, 3,   boost,  106.11, 100069.00,  105.08,   12.86,   50.33, 18.1, 4.18, 4.17, 4.00, 114.47,  -0.96,   5.61,  33.42, -11.40,  -6.98,  -0.35,  -0.00,   0.78,   3.56, 4.17, 0.00, 0.00, 0.00, 4.43, 1, 1,  9,  40.3885573, -87.5141252,   226.0, 2025, 10, 25, 19, 28, 32,        4,        8,  43,  63,   1.4,   0.8,   1.1,  0,  0, 24, 25,  0,  0,  0,  0, 27,  0,  0,  0,  0,  0,  0, 22,  0,  0,  0,  0,  0,  0,  0,  0,  0, 22, 26, 35, 36,  0, 35, 24
6, 11047, 5,KE9CTZ,     0.43, 3,   boost,  112.15, 100066.00,  105.33,   13.11,   51.40, 18.1, 4.18, 4.17, 4.00, 114.76,  -2.05,   5.83,  33.84, -12.31,  -8.20,  -0.35,  -0.00,   0.78,   3.49, 4.17, 0.00, 0.00, 0.00, 4.43, 1, 1,  9,  40.3885573, -87.5141252,   226.0, 2025, 10, 25, 19, 28, 32,        4,        8,  43,  63,   1.4,   0.8,   1.1,  0,  0, 24, 25,  0,  0,  0,  0, 27,  0,  0,  0,  0,  0,  0, 22,  0,  0,  0,  0,  0,  0,  0,  0,  0, 22, 26, 35, 36,  0, 35, 24
6, 11047, 5,KE9CTZ,     0.44, 3,   boost,  107.62, 100066.00,  105.33,   13.11,   52.48, 18.1, 4.18, 4.17, 4.00, 115.22,  -1.50,   4.34,  35.06, -13.23,  -9.05,  -0.35,  -0.00,   0.78,   3.42, 4.17, 0.00, 0.00, 0.00, 4.43, 1, 1,  9,  40.3885573, -87.5141252,   226.0, 2025, 10, 25, 19, 28, 32,        4,        8,  43,  63,   1.4,   0.8,   1.1,  0,  0, 24, 25,  0,  0,  0,  0, 27,  0,  0,  0,  0,  0,  0, 22,  0,  0,  0,  0,  0,  0,  0,  0,  0, 22, 26, 35, 36,  0, 35, 24
6, 11047, 5,KE9CTZ,     0.45, 3,   boost,  108.12, 100044.00,  107.18,   14.96,   53.57, 18.1, 4.18, 4.17, 4.00, 117.04,  -0.11,   2.73,  35.25, -13.78, -10.15,  -0.35,   0.00,   0.78,   3.34, 4.17, 0.00, 0.00, 0.00, 4.43, 1, 1,  9,  40.3885573, -87.5141252,   226.0, 2025, 10, 25, 19, 28, 32,        4,        8,  43,  63,   1.4,   0.8,   1.1,  0,  0, 24, 25,  0,  0,  0,  0, 27,  0,  0,  0,  0,  0,  0, 22,  0,  0,  0,  0,  0,  0,  0,  0,  0, 22, 26, 35, 36,  0, 35, 24
6, 11047, 5,KE9CTZ,     0.46, 3,   boost,  109.63, 100044.00,  107.18,   14.96,   54.65, 18.1, 4.18, 4.17, 4.00, 116.48,   2.87,   0.84,  33.54, -14.39,  -9.97,  -0.34,   0.01,   0.79,   3.27, 4.17, 0.00, 0.00, 0.00, 4.43, 1, 1,  9,  40.3885573, -87.5141252,   226.0, 2025, 10, 25, 19, 28, 32,        4,        8,  43,  63,   1.4,   0.8,   1.1,  0,  0, 24, 25,  0,  0,  0,  0, 27,  0,  0,  0,  0,  0,  0, 22,  0,  0,  0,  0,  0,  0,  0,  0,  0, 22, 26, 35, 36,  0, 35, 24
6, 11047, 5,KE9CTZ,     0.47, 3,   boost,  108.12, 100030.00,  108.36,   16.14,   55.73, 18.1, 4.18, 4.17, 4.00, 116.34,   4.07,   1.44,  30.42, -15.00, -10.82,  -0.34,   0.01,   0.79,   3.21, 4.17, 0.00, 0.00, 0.00, 4.43, 1, 1,  9,  40.3885573, -87.5141252,   226.0, 2025, 10, 25, 19, 28, 32,        4,        8,  43,  63,   1.4,   0.8,   1.1,  0,  0, 24, 25,  0,  0,  0,  0, 27,  0,  0,  0,  0,  0,  0, 22,  0,  0,  0,  0,  0,  0,  0,  0,  0, 22, 26, 35, 36,  0, 35, 24
6, 11047, 5,KE9CTZ,     0.48, 3,   boost,  107.12, 100030.00,  108.36,   16.14,   56.82, 18.1, 4.18, 4.17, 4.00, 116.47,   2.59,   2.95,  27.37, -15.55, -10.64,  -0.34,   0.01,   0.80,   3.17, 4.17, 0.00, 0.00, 0.00, 4.43, 1, 1,  9,  40.3885573, -87.5141252,   226.0, 2025, 10, 25, 19, 28, 32,        4,        8,  43,  63,   1.4,   0.8,   1.1,  0,  0, 24, 25,  0,  0,  0,  0, 27,  0,  0,  0,  0,  0,  0, 22,  0,  0,  0,  0,  0,  0,  0,  0,  0, 22, 26, 35, 36,  0, 35, 24
6, 11047, 5,KE9CTZ,     0.49, 3,   boost,  109.13, 100019.00,  109.29,   17.06,   57.91, 18.1, 4.18, 4.17, 4.00, 116.15,   0.72,   4.55,  25.91, -16.28, -11.13,  -0.35,   0.01,   0.80,   3.13, 4.17, 0.00, 0.00, 0.00, 4.43, 1, 1,  9,  40.3885573, -87.5141252,   226.0, 2025, 10, 25, 19, 28, 32,        4,        8,  43,  63,   1.4,   0.8,   1.1,  0,  0, 24, 25,  0,  0,  0,  0, 27,  0,  0,  0,  0,  0,  0, 22,  0,  0,  0,  0,  0,  0,  0,  0,  0, 22, 26, 35, 36,  0, 35, 24
6, 11047, 5,KE9CTZ,     0.50, 3,   boost,  110.64, 100019.00,  109.29,   17.06,   58.99, 18.1, 4.18, 4.17, 4.00, 116.75,  -1.04,   5.04,  25.60, -17.69, -12.22,  -0.35,   0.01,   0.80,   3.10, 4.17, 0.00, 0.00, 0.00, 4.43, 1, 1,  9,  40.3885573, -87.5141252,   226.0, 2025, 10, 25, 19, 28, 32,        4,        8,  43,  63,   1.4,   0.8,   1.1,  0,  0, 24, 25,  0,  0,  0,  0, 27,  0,  0,  0,  0,  0,  0, 22,  0,  0,  0,  0,  0,  0,  0,  0,  0, 22, 26, 35, 36,  0, 35, 24
6, 11047, 5,KE9CTZ,     0.51, 3,   boost,  110.14, 100007.00,  110.30,   18.07,   60.08, 18.1, 4.18, 4.17, 4.00, 117.71,  -1.26,   3.74,  25.79, -18.11, -12.77,  -0.34,   0.01,   0.80,   3.09, 4.17, 0.00, 0.00, 0.00, 4.43, 1, 1,  9,  40.3885573, -87.5141252,   226.0, 2025, 10, 25, 19, 28, 32,        4,        8,  43,  63,   1.4,   0.8,   1.1,  0,  0, 24, 25,  0,  0,  0,  0, 27,  0,  0,  0,  0,  0,  0, 22,  0,  0,  0,  0,  0,  0,  0,  0,  0, 22, 26, 35, 36,  0, 35, 24
6, 11047, 5,KE9CTZ,     0.52, 3,   boost,  108.63, 100007.00,  110.30,   18.07,   61.17, 18.1, 4.18, 4.17, 4.00, 116.95,   1.00,   2.66,  24.93, -18.91, -12.90,  -0.34,   0.02,   0.80,   3.09, 4.17, 0.00, 0.00, 0.00, 4.43, 1, 1,  9,  40.3885573, -87.5141252,   226.0, 2025, 10, 25, 19, 28, 32,        4,        8,  43,  63,   1.4,   0.8,   1.1,  0,  0, 24, 25,  0,  0,  0,  0, 27,  0,  0,  0,  0,  0,  0, 22,  0,  0,  0,  0,  0,  0,  0,  0,  0, 22, 26, 35, 36,  0, 35, 24
6, 11047, 5,KE9CTZ,     0.53, 3,   boost,  107.12,  99984.00,  112.23,   20.01,   62.25, 18.1, 4.18, 4.17, 4.00, 117.11,   2.51,   1.93,  22.37, -20.00, -13.57,  -0.35,   0.01,   0.80,   3.12, 4.17, 0.00, 0.00, 0.00, 4.43, 1, 1,  9,  40.3885573, -87.5141252,   226.0, 2025, 10, 25, 19, 28, 32,        4,        8,  43,  63,   1.4,   0.8,   1.1,  0,  0, 24, 25,  0,  0,  0,  0, 27,  0,  0,  0,  0,  0,  0, 22,  0,  0,  0,  0,  0,  0,  0,  0,  0, 22, 26, 35, 36,  0, 35, 24
6, 11047, 5,KE9CTZ,     0.54, 3,   boost,  104.60,  99984.00,  112.23,   20.01,   63.33, 18.1, 4.18, 4.17, 4.00, 115.75,   4.09,   0.13,  17.91, -19.33, -13.20,  -0.35,   0.02,   0.80,   3.17, 4.17, 0.00, 0.00, 0.00, 4.43, 1, 1,  9,  40.3885573, -87.5141252,   226.0, 2025, 10, 25, 19, 28, 32,        4,        8,  43,  63,   1.4,   0.8,   1.1,  0,  0, 24, 25,  0,  0,  0,  0, 27,  0,  0,  0,  0,  0,  0, 22,  0,  0,  0,  0,  0,  0,  0,  0,  0, 22, 26, 35, 36,  0, 35, 24
6, 11047, 5,KE9CTZ,     0.55, 3,   boost,  110.64,  99969.00,  113.49,   21.27,   64.41, 18.1, 4.18, 4.17, 4.00, 115.58,   3.36,   0.99,  14.25, -19.58, -13.32,  -0.35,   0.02,   0.80,   3.23, 4.17, 0.00, 0.00, 0.00, 4.43, 1, 1,  9,  40.3885573, -87.5141252,   226.0, 2025, 10, 25, 19, 28, 32,        4,        8,  43,  63,   1.4,   0.8,   1.1,  0,  0, 24, 25,  0,  0,  0,  0, 27,  0,  0,  0,  0,  0,  0, 22,  0,  0,  0,  0,  0,  0,  0,  0,  0, 22, 26, 35, 36,  0, 35, 24
